<?xml version="1.0" encoding="UTF-8"?>
<kml xmlns="http://earth.google.com/kml/2.0">
<Document>
<name><![CDATA[cave]]></name>
<Folder>
<name><![CDATA[Migovec Plateau]]></name>
<Folder>
<name><![CDATA[System Migovec]]></name>
<Folder>
<name><![CDATA[<bf>Primadona, Mona tip, Ubend-571, Belladonna<bf>]]></name>
<Placemark>
<name><![CDATA[Primadona]]></name>
<Point>
<coordinates>13.75735812666722,46.25160520629453,1727.00000000000000</coordinates>
</Point>
</Placemark>
<Placemark>
<name><![CDATA[Mona tip]]></name>
<Point>
<coordinates>13.75744987256980,46.25251025579458,1720.48000000000002</coordinates>
</Point>
</Placemark>
<Placemark>
<name><![CDATA[U-bend-571]]></name>
<Point>
<coordinates>13.75778193724119,46.25162987654627,1785.53999999999996</coordinates>
</Point>
</Placemark>
<Placemark>
<name><![CDATA[Belladonna]]></name>
<Point>
<coordinates>13.75753964726122,46.25164208900940,1766.66000000000008</coordinates>
</Point>
</Placemark>
</Folder>
<Folder>
<name><![CDATA[Sistem Migovec (the Old System)]]></name>
<Placemark>
<name><![CDATA[M16 part of System Migovec]]></name>
<Point>
<coordinates>13.76394999701801,46.25203656564030,1852.00000000000000</coordinates>
</Point>
</Placemark>
<Placemark>
<name><![CDATA[M18 part of System Migovec]]></name>
<Point>
<coordinates>13.76373063405963,46.25314086552792,1847.00000000000000</coordinates>
</Point>
</Placemark>
<Placemark>
<name><![CDATA[M2 part of System Migovec]]></name>
<Point>
<coordinates>13.76399502433188,46.25291879117693,1858.00000000000000</coordinates>
</Point>
</Placemark>
</Folder>
<Folder>
<name><![CDATA[Vrtnarija Vilinska]]></name>
<Placemark>
<name><![CDATA[Vrtnarija]]></name>
<Point>
<coordinates>13.76478442560635,46.25357513159019,1798.00000000000000</coordinates>
</Point>
</Placemark>
<Placemark>
<name><![CDATA[Vilinska jama]]></name>
<Point>
<coordinates>13.76509519260653,46.25372523559250,1779.74000000000001</coordinates>
</Point>
</Placemark>
</Folder>
</Folder>
<Placemark>
<name><![CDATA[Gondolin]]></name>
<Point>
<coordinates>13.75770009211323,46.25308898461073,1770.18000000000006</coordinates>
</Point>
</Placemark>
<Placemark>
<name><![CDATA[Planika Jama]]></name>
<Point>
<coordinates>13.75788972116449,46.25218681314244,1787.00000000000000</coordinates>
</Point>
</Placemark>
<Placemark>
<name><![CDATA[M-17 (Frigidare)]]></name>
<Point>
<coordinates>13.76033634904632,46.25354497664433,1879.00000000000000</coordinates>
</Point>
</Placemark>
<Placemark>
<name><![CDATA[M19]]></name>
<Point>
<coordinates>13.76014104200998,46.25300301854454,1850.00000000000000</coordinates>
</Point>
</Placemark>
<Placemark>
<name><![CDATA[M1 repush, resurvey 2007]]></name>
<Point>
<coordinates>13.76333652180390,46.25220987736242,1855.00000000000000</coordinates>
</Point>
</Placemark>
<Placemark>
<name><![CDATA[M15]]></name>
<Point>
<coordinates>13.76163891774763,46.25329817199864,1860.00000000000000</coordinates>
</Point>
</Placemark>
<Placemark>
<name><![CDATA[M10]]></name>
<Point>
<coordinates>13.76266365346240,46.25156378550607,1862.00000000000000</coordinates>
</Point>
</Placemark>
<Placemark>
<name><![CDATA[Janet's little cave]]></name>
<Point>
<coordinates>13.76079188604066,46.25506956493945,1879.45000000000005</coordinates>
</Point>
</Placemark>
<Placemark>
<name><![CDATA[Rowan Cave]]></name>
<Point>
<coordinates>13.76075188299796,46.25755329359171,1819.00000000000000</coordinates>
</Point>
</Placemark>
<Placemark>
<name><![CDATA[Mugo]]></name>
<Point>
<coordinates>13.75683203889440,46.25297859778817,1697.61999999999989</coordinates>
</Point>
</Placemark>
<Placemark>
<name><![CDATA[Bertijeva jama]]></name>
<Point>
<coordinates>13.75084356393523,46.26319474196940,1749.00000000000000</coordinates>
</Point>
</Placemark>
<Placemark>
<name><![CDATA[NakluÄja jama]]></name>
<Point>
<coordinates>13.76519064171385,46.24067733267051,1310.00000000000000</coordinates>
</Point>
</Placemark>
<Placemark>
<name><![CDATA[Planja jama]]></name>
<Point>
<coordinates>13.75227030413514,46.26491981365993,1897.00000000000000</coordinates>
</Point>
</Placemark>
<Placemark>
<name><![CDATA[Brezno pod Vrhom Planje]]></name>
<Point>
<coordinates>13.75208127184311,46.26467482273240,1877.00000000000000</coordinates>
</Point>
</Placemark>
</Folder>
</Document>
</kml>
